[
    {
        "name": "BALANCE CAF\u00c9",
        "hours": "Fall Quarter Hours\nMonday - Friday: 7:00 am - 9:00 pm\nSaturday - Sunday: 9:00 am - 9:00 pm",
        "location": "Location: \nBuilding 112, Vista Grande Area",
        "phone": "805-756-5939"
    },
    {
        "name": "BRUNCH",
        "hours": "Fall Quarter Hours\nMonday - Friday: 7:00 am - 9:00 pm\nSaturday - Sunday: 9:00 am - 9:00 pm",
        "location": "Location: \nBuilding 112, Vista Grande Area",
        "phone": "805-756-5939"
    },
    {
        "name": "HEARTH",
        "hours": "Fall Quarter Hours\nMonday - Sunday: 10:00 am - 9:00 pm",
        "location": "Location: \nBuilding 112, Vista Grande Area",
        "phone": "805-756-5939"
    },
    {
        "name": "JAMBA",
        "hours": "Fall Quarter Hours\nMonday - Friday: 6:30 am - 9:00 pm\nSaturday - Sunday: 8:00 am - 8:00 pm",
        "location": "Location: \nBuilding 112, Vista Grande Area",
        "phone": "805-756-1955"
    },
    {
        "name": "NOODLES",
        "hours": "Fall Quarter Hours\nMonday - Sunday: 10:00 am - 9:00 pm",
        "location": "Location: \nBuilding 112, Vista Grande Area",
        "phone": "805-756-5939"
    },
    {
        "name": "STREATS",
        "hours": "Fall Quarter Hours\nMonday - Sunday: 10:00 am - 9:00 pm",
        "location": "Location: \nBuilding 112, Vista Grande Area",
        "phone": "805-756-5939"
    },
    {
        "name": "SCOUT COFFEE CO.",
        "hours": "Fall Quarter Hours\nMonday - Friday: 6:30 am - 5:00 pm\nSaturday - Sunday: 8:00 am - 5:00 pm",
        "location": "Location: \nBuilding 172, yak\u0294it\u02b8ut\u02b8u Area",
        "phone": "805-756-7731"
    },
    {
        "name": "MARKET UU",
        "hours": "Fall Quarter Hours\nMonday - Friday: 8:00 am - 5:00 pm\nSaturday - Sunday: Closed",
        "location": "Location: \nBuilding 65, University Union Area",
        "phone": "805-756-5668"
    },
    {
        "name": "MUSTANG STATION",
        "hours": "Fall Quarter Hours\nMonday - Friday: 10:30 am - 8:00 pm\nSaturday: Closed\nSunday: 4:00 pm - 8:00 pm",
        "location": "Location: \nBuilding 65, University Union Area",
        "phone": "805-756-4089"
    },
    {
        "name": "RED RADISH",
        "hours": "Fall Quarter Hours\nMonday - Friday: 10:30 am - 8:00 pm\nSaturday: Closed\nSunday: 4:00 pm - 8:00 pm",
        "location": "Location: \nBuilding 65, University Union Area",
        "phone": "805-756-7705"
    },
    {
        "name": "HEALTH SHACK",
        "hours": "Fall Quarter Hours\nMonday - Friday: 8:00 am - 4:00 pm\nSaturday - Sunday: Closed",
        "location": "Location: \nBuilding 34, Kennedy Library Area",
        "phone": "805-756-5135"
    },
    {
        "name": "JULIAN\u2019S CAF\u00c9 BISTRO",
        "hours": "Fall Quarter Hours\nMonday - Friday: 8:00 am - 3:00 pm\nSaturday - Sunday: Closed",
        "location": "[]",
        "phone": "805-756-1126"
    },
    {
        "name": "SUBWAY",
        "hours": "Fall Quarter Hours\nMonday - Sunday: Open 24 hours",
        "location": "Location: \nBuilding 34, Kennedy Library Area",
        "phone": "805-756-7829"
    },
    {
        "name": "EINSTEIN BROS BAGELS",
        "hours": "Fall Quarter Hours\nMonday - Friday: 7:00 am - 8:00 pm\nSaturday - Sunday: 9:00 am - 8:00 pm",
        "location": "Location: \nBuilding 171, Poly Canyon Village Area",
        "phone": "805-756-1953"
    },
    {
        "name": "MARKET POLY CANYON",
        "hours": "Fall Quarter Hours\nMonday - Friday: 7:00 am - 8:00 pm\nSaturday - Sunday: 9:00 am - 8:00 pm",
        "location": "Location: \nBuilding 171, Poly Canyon Village Area",
        "phone": "805-756-1959"
    },
    {
        "name": "SUBWAY",
        "hours": "Fall Quarter Hours\nMonday - Sunday: Open 24 hours",
        "location": "[]",
        "phone": "805-548-1400"
    },
    {
        "name": "STARBUCKS",
        "hours": "Fall Quarter Hours\nMonday - Friday: 7:30 am - 5:30 pm\nSaturday - Sunday: Closed",
        "location": "Location: \nBuilding 24, Kennedy Library Area",
        "phone": "805-756-7827"
    },
    {
        "name": "SHAKE SMART",
        "hours": "Fall Quarter Hours\nMonday - Friday: 7:00 am - 10:00 pm\nSaturday - Sunday: 9:00 am - 8:00 pm",
        "location": "[]",
        "phone": "[]"
    },
    {
        "name": "SWEET BAR",
        "hours": "Fall Quarter Hours\nMonday - Sunday: 10:00 am - 9:00 pm",
        "location": "Location: \nBuilding 112, Vista Grande Area",
        "phone": "805-756-5939"
    },
    {
        "name": "MUSTANG EATS",
        "hours": "Fall Quarter Hours\nMonday - Thursday: 11:00 am - 3:00 pm ()\nFriday: 11:00 am - 2:00 pm ()\nSaturday - Sunday: Closed ()",
        "location": "[]",
        "phone": "[]"
    }
]